{
"type": "FeatureCollection",
"crs": { "type": "name", "properties": { "name": "urn:ogc:def:crs:OGC:1.3:CRS84" } },
"features": [
{ "type": "Feature", "properties": { "Ente": "Ufficio PT", "Indirizzo": "BASTIONI DI PORTA VOLTA, 7", "Telefono": "02-6572655", "Fax": "02-29002004", "CAP": "20121", "MUNICIPIO": "1", "ID_NIL": "2", "NIL": "BRERA", "LONG_X_4326": 9.182151, "LAT_Y_4326": 45.479601, "Location": "(45.47960100000006, 9.182151000000033)" }, "geometry": { "type": "Point", "coordinates": [ 9.182151, 45.479601 ] } },
{ "type": "Feature", "properties": { "Ente": "Ufficio PT", "Indirizzo": "CORSO DI PORTA VIGENTINA, 35", "Telefono": "02-58320771", "Fax": "02-58319779", "CAP": "20122", "MUNICIPIO": "1", "ID_NIL": "5", "NIL": "PORTA VIGENTINA - PORTA LODOVICA", "LONG_X_4326": 9.1965195, "LAT_Y_4326": 45.452538, "Location": "(45.45253800000006, 9.196519500000022)" }, "geometry": { "type": "Point", "coordinates": [ 9.196519500000022, 45.452538 ] } },
{ "type": "Feature", "properties": { "Ente": "Ufficio PT", "Indirizzo": "CORSO ITALIA, 16", "Telefono": "02-804336", "Fax": "02-86454450", "CAP": "20122", "MUNICIPIO": "1", "ID_NIL": "1", "NIL": "DUOMO", "LONG_X_4326": 9.1874700000000757, "LAT_Y_4326": 45.457893, "Location": "(45.45789300000007, 9.187470000000076)" }, "geometry": { "type": "Point", "coordinates": [ 9.18747, 45.457893 ] } },
{ "type": "Feature", "properties": { "Ente": "Ufficio PT", "Indirizzo": "CORSO SEMPIONE, 94", "Telefono": null, "Fax": null, "CAP": "20154", "MUNICIPIO": "8", "ID_NIL": "69", "NIL": "SARPI", "LONG_X_4326": 9.158508, "LAT_Y_4326": 45.48654, "Location": "(45.48654000000005, 9.15850800000004)" }, "geometry": { "type": "Point", "coordinates": [ 9.158508, 45.48654 ] } },
{ "type": "Feature", "properties": { "Ente": "Ufficio PT", "Indirizzo": "CORSO VENEZIA, 42", "Telefono": "02-76023056", "Fax": "02-7837251", "CAP": "20121", "MUNICIPIO": "1", "ID_NIL": "4", "NIL": "GUASTALLA", "LONG_X_4326": 9.2027025, "LAT_Y_4326": 45.471861, "Location": "(45.47186100000005, 9.202702500000044)" }, "geometry": { "type": "Point", "coordinates": [ 9.202702500000044, 45.471861 ] } },
{ "type": "Feature", "properties": { "Ente": "Ufficio PT", "Indirizzo": "LARGO GIOVANNI BATTISTA SCALABRINI, 5", "Telefono": "02-47714011", "Fax": "02-47714047", "CAP": "20146", "MUNICIPIO": "6", "ID_NIL": "49", "NIL": "GIAMBELLINO", "LONG_X_4326": 9.1411830000000691, "LAT_Y_4326": 45.450396, "Location": "(45.45039600000007, 9.14118300000007)" }, "geometry": { "type": "Point", "coordinates": [ 9.141183, 45.450396 ] } },
{ "type": "Feature", "properties": { "Ente": "Ufficio PT", "Indirizzo": "PIAZZA NAPOLI, 38", "Telefono": "02-42255211", "Fax": "02-42255247", "CAP": "20146", "MUNICIPIO": "6", "ID_NIL": "49", "NIL": "GIAMBELLINO", "LONG_X_4326": 9.1527885, "LAT_Y_4326": 45.452475, "Location": "(45.45247500000005, 9.152788500000042)" }, "geometry": { "type": "Point", "coordinates": [ 9.152788500000042, 45.452475 ] } },
{ "type": "Feature", "properties": { "Ente": "Ufficio PT", "Indirizzo": "PIAZZA SANTA MARIA NASCENTE, 2", "Telefono": "02-325774", "Fax": "02-3271232", "CAP": "20148", "MUNICIPIO": "8", "ID_NIL": "66", "NIL": "QT 8", "LONG_X_4326": 9.1378575000001, "LAT_Y_4326": 45.486225, "Location": "(45.48622500000005, 9.137857500000052)" }, "geometry": { "type": "Point", "coordinates": [ 9.137857500000052, 45.486225 ] } },
{ "type": "Feature", "properties": { "Ente": "Ufficio PT", "Indirizzo": "PIAZZALE COSTANTINO NIGRA, 1", "Telefono": "02-37790911", "Fax": "02-37790947", "CAP": "20158", "MUNICIPIO": "9", "ID_NIL": "78", "NIL": "FARINI", "LONG_X_4326": 9.171009, "LAT_Y_4326": 45.496152, "Location": "(45.49615200000005, 9.171009000000026)" }, "geometry": { "type": "Point", "coordinates": [ 9.171009, 45.496152 ] } },
{ "type": "Feature", "properties": { "Ente": "Ufficio PT", "Indirizzo": "VIA ADELCHI, 2", "Telefono": "02-2665192", "Fax": "02-26680123", "CAP": "20131", "MUNICIPIO": "3", "ID_NIL": "22", "NIL": "CITTA' STUDI", "LONG_X_4326": 9.2317673700000569, "LAT_Y_4326": 45.485437286000035, "Location": "(45.485437286000035, 9.231767370000057)" }, "geometry": { "type": "Point", "coordinates": [ 9.231767370000057, 45.485437286000035 ] } },
{ "type": "Feature", "properties": { "Ente": "Ufficio PT", "Indirizzo": "VIA ALFREDO CAPPELLINI, 17\/19", "Telefono": "02-6773311", "Fax": "02-67733147", "CAP": "20124", "MUNICIPIO": "2", "ID_NIL": "10", "NIL": "STAZIONE CENTRALE - PONTE SEVESO", "LONG_X_4326": 9.201735, "LAT_Y_4326": 45.48195, "Location": "(45.48195000000004, 9.201735000000042)" }, "geometry": { "type": "Point", "coordinates": [ 9.201735, 45.48195 ] } },
{ "type": "Feature", "properties": { "Ente": "Ufficio PT", "Indirizzo": "VIA ANDREA VOCHIERI, 12", "Telefono": "02-66200116", "Fax": "02-66203094", "CAP": "20161", "MUNICIPIO": "9", "ID_NIL": "80", "NIL": "AFFORI", "LONG_X_4326": 9.1686825, "LAT_Y_4326": 45.514143, "Location": "(45.51414300000005, 9.168682500000045)" }, "geometry": { "type": "Point", "coordinates": [ 9.168682500000045, 45.514143 ] } },
{ "type": "Feature", "properties": { "Ente": "Ufficio PT", "Indirizzo": "VIA APPENNINI, 77\/A", "Telefono": "02-3535414", "Fax": "02-3538072", "CAP": "20151", "MUNICIPIO": "8", "ID_NIL": "65", "NIL": "Q.RE GALLARATESE - Q.RE SAN LEONARDO - LAMPUGNANO", "LONG_X_4326": 9.104292, "LAT_Y_4326": 45.502074, "Location": "(45.50207400000005, 9.104292000000044)" }, "geometry": { "type": "Point", "coordinates": [ 9.104292, 45.502074 ] } },
{ "type": "Feature", "properties": { "Ente": "Ufficio PT", "Indirizzo": "VIA ARQUA', 14", "Telefono": "02-26141687", "Fax": "02-26825342", "CAP": "20131", "MUNICIPIO": "2", "ID_NIL": "20", "NIL": "LORETO - CASORETTO - NOLO", "LONG_X_4326": 9.2277135, "LAT_Y_4326": 45.492876, "Location": "(45.49287600000008, 9.22771350000005)" }, "geometry": { "type": "Point", "coordinates": [ 9.22771350000005, 45.492876 ] } },
{ "type": "Feature", "properties": { "Ente": "Ufficio PT", "Indirizzo": "VIA BENOZZO GOZZOLI, 51", "Telefono": "02-48945239", "Fax": "02-48945202", "CAP": "20152", "MUNICIPIO": "7", "ID_NIL": "55", "NIL": "BAGGIO - Q.RE DEGLI OLMI - Q.RE VALSESIA", "LONG_X_4326": 9.09099, "LAT_Y_4326": 45.455607, "Location": "(45.45560700000004, 9.090990000000033)" }, "geometry": { "type": "Point", "coordinates": [ 9.09099, 45.455607 ] } },
{ "type": "Feature", "properties": { "Ente": "Ufficio PT", "Indirizzo": "VIA BOVISASCA, 173", "Telefono": "02-3573683", "Fax": "02-39000632", "CAP": "20161", "MUNICIPIO": "9", "ID_NIL": "81", "NIL": "BOVISASCA", "LONG_X_4326": 9.1528547820000767, "LAT_Y_4326": 45.519456269000045, "Location": "(45.519456269000045, 9.152854782000077)" }, "geometry": { "type": "Point", "coordinates": [ 9.152854782000077, 45.519456269000045 ] } },
{ "type": "Feature", "properties": { "Ente": "Ufficio PT", "Indirizzo": "VIA BRONZINO, 7", "Telefono": "02-29527423", "Fax": "02-2049719", "CAP": "20133", "MUNICIPIO": "3", "ID_NIL": "21", "NIL": "BUENOS AIRES - PORTA VENEZIA - PORTA MONFORTE", "LONG_X_4326": 9.2193300000000704, "LAT_Y_4326": 45.476136, "Location": "(45.476136000000054, 9.21933000000007)" }, "geometry": { "type": "Point", "coordinates": [ 9.21933, 45.476136 ] } },
{ "type": "Feature", "properties": { "Ente": "Ufficio PT", "Indirizzo": "VIA CALDERA, 126", "Telefono": "02-48201069", "Fax": "02-4521551", "CAP": "20153", "MUNICIPIO": "7", "ID_NIL": "62", "NIL": "QUINTO ROMANO", "LONG_X_4326": 9.0923085000001, "LAT_Y_4326": 45.475821, "Location": "(45.47582100000005, 9.092308500000058)" }, "geometry": { "type": "Point", "coordinates": [ 9.092308500000058, 45.475821 ] } },
{ "type": "Feature", "properties": { "Ente": "Ufficio PT", "Indirizzo": "VIA CARLO PAREA, 26", "Telefono": "02-58014379", "Fax": "02-58012716", "CAP": "20138", "MUNICIPIO": "4", "ID_NIL": "31", "NIL": "MONLUE' - PONTE LAMBRO", "LONG_X_4326": 9.263835, "LAT_Y_4326": 45.442863, "Location": "(45.442863000000045, 9.263835000000029)" }, "geometry": { "type": "Point", "coordinates": [ 9.263835, 45.442863 ] } },
{ "type": "Feature", "properties": { "Ente": "Ufficio PT", "Indirizzo": "VIA CASCINA BAROCCO, 8", "Telefono": "02-48913792", "Fax": "02-48920600", "CAP": "20152", "MUNICIPIO": "7", "ID_NIL": "56", "NIL": "FORZE ARMATE", "LONG_X_4326": 9.108846, "LAT_Y_4326": 45.461367, "Location": "(45.46136700000005, 9.108846000000028)" }, "geometry": { "type": "Point", "coordinates": [ 9.108846, 45.461367 ] } },
{ "type": "Feature", "properties": { "Ente": "Ufficio PT", "Indirizzo": "VIA CASSANO D'ADDA, 24", "Telefono": "02-5691187", "Fax": "02-57301894", "CAP": "20139", "MUNICIPIO": "5", "ID_NIL": "36", "NIL": "SCALO ROMANA", "LONG_X_4326": 9.211392, "LAT_Y_4326": 45.437688, "Location": "(45.43768800000004, 9.211392000000046)" }, "geometry": { "type": "Point", "coordinates": [ 9.211392, 45.437688 ] } },
{ "type": "Feature", "properties": { "Ente": "Ufficio PT", "Indirizzo": "VIA COMUNE ANTICO, 1", "Telefono": "02-67070525", "Fax": "02-6706389", "CAP": "20125", "MUNICIPIO": "2", "ID_NIL": "13", "NIL": "GRECO - SEGNANO", "LONG_X_4326": 9.2096325000001, "LAT_Y_4326": 45.501561, "Location": "(45.50156100000004, 9.209632500000055)" }, "geometry": { "type": "Point", "coordinates": [ 9.209632500000055, 45.501561 ] } },
{ "type": "Feature", "properties": { "Ente": "Ufficio PT", "Indirizzo": "VIA CORDUSIO, 4", "Telefono": "02-72482126", "Fax": "02-72482496", "CAP": "20123", "MUNICIPIO": "1", "ID_NIL": "1", "NIL": "DUOMO", "LONG_X_4326": 9.1851165, "LAT_Y_4326": 45.464634, "Location": "(45.464634000000046, 9.18511650000005)" }, "geometry": { "type": "Point", "coordinates": [ 9.185116500000049, 45.464634 ] } },
{ "type": "Feature", "properties": { "Ente": "Ufficio PT", "Indirizzo": "VIA COSTANTINO BARONI, 11\/C", "Telefono": "02-8263541", "Fax": "02-89302352", "CAP": "20142", "MUNICIPIO": "5", "ID_NIL": "41", "NIL": "GRATOSOGLIO - Q.RE MISSAGLIA - Q.RE TERRAZZE", "LONG_X_4326": 9.1721655000001, "LAT_Y_4326": 45.411336, "Location": "(45.41133600000006, 9.172165500000062)" }, "geometry": { "type": "Point", "coordinates": [ 9.172165500000062, 45.411336 ] } },
{ "type": "Feature", "properties": { "Ente": "Ufficio PT", "Indirizzo": "VIA DEI LARICI, 11\/B", "Telefono": "02-4564664", "Fax": "02-48910655", "CAP": "20152", "MUNICIPIO": "7", "ID_NIL": "55", "NIL": "BAGGIO - Q.RE DEGLI OLMI - Q.RE VALSESIA", "LONG_X_4326": 9.083358, "LAT_Y_4326": 45.453393, "Location": "(45.45339300000006, 9.083358000000032)" }, "geometry": { "type": "Point", "coordinates": [ 9.083358, 45.453393 ] } },
{ "type": "Feature", "properties": { "Ente": "Ufficio PT", "Indirizzo": "VIA DELL'ORSO, 11", "Telefono": "02-80277311", "Fax": "02-80277347", "CAP": "20121", "MUNICIPIO": "1", "ID_NIL": "2", "NIL": "BRERA", "LONG_X_4326": 9.1859400000000733, "LAT_Y_4326": 45.468954, "Location": "(45.46895400000005, 9.185940000000073)" }, "geometry": { "type": "Point", "coordinates": [ 9.18594, 45.468954 ] } },
{ "type": "Feature", "properties": { "Ente": "Ufficio PT", "Indirizzo": "VIA DELLA MOSCOVA, 30", "Telefono": null, "Fax": null, "CAP": "20121", "MUNICIPIO": "1", "ID_NIL": "2", "NIL": "BRERA", "LONG_X_4326": 9.1896075, "LAT_Y_4326": 45.476856, "Location": "(45.476856000000055, 9.189607500000022)" }, "geometry": { "type": "Point", "coordinates": [ 9.189607500000022, 45.476856 ] } },
{ "type": "Feature", "properties": { "Ente": "Ufficio PT", "Indirizzo": "VIA DURAZZO, 5", "Telefono": "02-21040511", "Fax": "02-21040547", "CAP": "20134", "MUNICIPIO": "3", "ID_NIL": "18", "NIL": "CIMIANO - ROTTOLE - Q.RE FELTRE", "LONG_X_4326": 9.241119, "LAT_Y_4326": 45.487881, "Location": "(45.48788100000007, 9.241119000000026)" }, "geometry": { "type": "Point", "coordinates": [ 9.241119, 45.487881 ] } },
{ "type": "Feature", "properties": { "Ente": "Ufficio PT", "Indirizzo": "VIA EMILIO MOTTA, 5", "Telefono": "02-4986368", "Fax": "02-48010551", "CAP": "20144", "MUNICIPIO": "7", "ID_NIL": "51", "NIL": "PORTA MAGENTA", "LONG_X_4326": 9.1639935000001, "LAT_Y_4326": 45.465318, "Location": "(45.465318000000025, 9.16399350000006)" }, "geometry": { "type": "Point", "coordinates": [ 9.163993500000061, 45.465318 ] } },
{ "type": "Feature", "properties": { "Ente": "Ufficio PT", "Indirizzo": "VIA ENRICO ACERBI, 34", "Telefono": "02-66202077", "Fax": "02-6469245", "CAP": "20161", "MUNICIPIO": "9", "ID_NIL": "83", "NIL": "BRUZZANO", "LONG_X_4326": 9.1749375000001, "LAT_Y_4326": 45.528678, "Location": "(45.52867800000007, 9.174937500000055)" }, "geometry": { "type": "Point", "coordinates": [ 9.174937500000055, 45.528678 ] } },
{ "type": "Feature", "properties": { "Ente": "Ufficio PT", "Indirizzo": "VIA FESTA DEL PERDONO, 10", "Telefono": "02-58207833", "Fax": "02-58207847", "CAP": "20122", "MUNICIPIO": "1", "ID_NIL": "1", "NIL": "DUOMO", "LONG_X_4326": 9.1942515000001, "LAT_Y_4326": 45.461052, "Location": "(45.46105200000005, 9.194251500000064)" }, "geometry": { "type": "Point", "coordinates": [ 9.194251500000064, 45.461052 ] } },
{ "type": "Feature", "properties": { "Ente": "Ufficio PT", "Indirizzo": "VIA FILIPPO SASSETTI, 27", "Telefono": null, "Fax": null, "CAP": "20124", "MUNICIPIO": "9", "ID_NIL": "11", "NIL": "ISOLA", "LONG_X_4326": 9.19314, "LAT_Y_4326": 45.488259, "Location": "(45.48825900000003, 9.193140000000028)" }, "geometry": { "type": "Point", "coordinates": [ 9.19314, 45.488259 ] } },
{ "type": "Feature", "properties": { "Ente": "Ufficio PT", "Indirizzo": "VIA FRANCESCO CILEA, 119", "Telefono": "02-38100117", "Fax": "02-33911701", "CAP": "20151", "MUNICIPIO": "8", "ID_NIL": "65", "NIL": "Q.RE GALLARATESE - Q.RE SAN LEONARDO - LAMPUGNANO", "LONG_X_4326": 9.094068, "LAT_Y_4326": 45.502686, "Location": "(45.50268600000004, 9.09406800000005)" }, "geometry": { "type": "Point", "coordinates": [ 9.094068, 45.502686 ] } },
{ "type": "Feature", "properties": { "Ente": "Ufficio PT", "Indirizzo": "VIA FRANCO TOSI, 11", "Telefono": "02-81808111", "Fax": "02-81808147", "CAP": "20143", "MUNICIPIO": "6", "ID_NIL": "45", "NIL": "MONCUCCO - SAN CRISTOFORO", "LONG_X_4326": 9.1567170000000715, "LAT_Y_4326": 45.444267, "Location": "(45.444267000000025, 9.156717000000071)" }, "geometry": { "type": "Point", "coordinates": [ 9.156717, 45.444267 ] } },
{ "type": "Feature", "properties": { "Ente": "Ufficio PT", "Indirizzo": "VIA FREIKOFEL, 16", "Telefono": "02-51616911", "Fax": "02-51616947", "CAP": "20138", "MUNICIPIO": "4", "ID_NIL": "33", "NIL": "ROGOREDO - SANTA GIULIA", "LONG_X_4326": 9.2450745, "LAT_Y_4326": 45.431622, "Location": "(45.43162200000006, 9.245074500000044)" }, "geometry": { "type": "Point", "coordinates": [ 9.245074500000044, 45.431622 ] } },
{ "type": "Feature", "properties": { "Ente": "Ufficio PT", "Indirizzo": "VIA FRIULI, 51", "Telefono": "02-55187443", "Fax": "02-59901244", "CAP": "20135", "MUNICIPIO": "4", "ID_NIL": "26", "NIL": "XXII MARZO", "LONG_X_4326": 9.2137500000000614, "LAT_Y_4326": 45.455139, "Location": "(45.45513900000003, 9.213750000000061)" }, "geometry": { "type": "Point", "coordinates": [ 9.21375, 45.455139 ] } },
{ "type": "Feature", "properties": { "Ente": "Ufficio PT", "Indirizzo": "VIA GAMBOLOITA, 4", "Telefono": "02-57430811", "Fax": "02-57430848", "CAP": "20139", "MUNICIPIO": "4", "ID_NIL": "35", "NIL": "LODI - CORVETTO", "LONG_X_4326": 9.2216115000001, "LAT_Y_4326": 45.440127, "Location": "(45.440127000000075, 9.221611500000051)" }, "geometry": { "type": "Point", "coordinates": [ 9.221611500000051, 45.440127 ] } },
{ "type": "Feature", "properties": { "Ente": "Ufficio PT", "Indirizzo": "VIA GEROLAMO CARDANO, 8", "Telefono": "02-6701493", "Fax": "02-6703023", "CAP": "20124", "MUNICIPIO": "9", "ID_NIL": "9", "NIL": "PORTA GARIBALDI - PORTA NUOVA", "LONG_X_4326": 9.1976085000001, "LAT_Y_4326": 45.485541, "Location": "(45.48554100000007, 9.197608500000058)" }, "geometry": { "type": "Point", "coordinates": [ 9.197608500000058, 45.485541 ] } },
{ "type": "Feature", "properties": { "Ente": "Ufficio PT", "Indirizzo": "VIA GIOSUE' CARDUCCI, 7", "Telefono": "02-85917111", "Fax": "02-85917147", "CAP": "20123", "MUNICIPIO": "1", "ID_NIL": "1", "NIL": "DUOMO", "LONG_X_4326": 9.1762965, "LAT_Y_4326": 45.466551, "Location": "(45.46655100000004, 9.176296500000035)" }, "geometry": { "type": "Point", "coordinates": [ 9.176296500000035, 45.466551 ] } },
{ "type": "Feature", "properties": { "Ente": "Ufficio PT", "Indirizzo": "VIA GIOVANNI BATTISTA GRASSI, 1", "Telefono": "02-3555035", "Fax": "02-39001038", "CAP": "20157", "MUNICIPIO": "8", "ID_NIL": "76", "NIL": "QUARTO OGGIARO - VIALBA - MUSOCCO", "LONG_X_4326": 9.1273005, "LAT_Y_4326": 45.512154, "Location": "(45.512154000000066, 9.127300500000047)" }, "geometry": { "type": "Point", "coordinates": [ 9.127300500000047, 45.512154 ] } },
{ "type": "Feature", "properties": { "Ente": "Ufficio PT", "Indirizzo": "VIA GIUSEPPE PECCHIO, 1", "Telefono": null, "Fax": null, "CAP": "20131", "MUNICIPIO": "3", "ID_NIL": "21", "NIL": "BUENOS AIRES - PORTA VENEZIA - PORTA MONFORTE", "LONG_X_4326": 9.2158605000001, "LAT_Y_4326": 45.484731, "Location": "(45.48473100000007, 9.215860500000076)" }, "geometry": { "type": "Point", "coordinates": [ 9.215860500000076, 45.484731 ] } },
{ "type": "Feature", "properties": { "Ente": "Ufficio PT", "Indirizzo": "VIA GIUSEPPE RIPAMONTI, 167", "Telefono": "02-53580011", "Fax": "02-53580047", "CAP": "20141", "MUNICIPIO": "5", "ID_NIL": "38", "NIL": "VIGENTINO - Q.RE FATIMA", "LONG_X_4326": 9.2011185000001, "LAT_Y_4326": 45.435222, "Location": "(45.43522200000007, 9.201118500000064)" }, "geometry": { "type": "Point", "coordinates": [ 9.201118500000064, 45.435222 ] } },
{ "type": "Feature", "properties": { "Ente": "Ufficio PT", "Indirizzo": "VIA GIUSEPPE UNGARETTI, 12", "Telefono": "02-3552257", "Fax": "02-3553052", "CAP": "20157", "MUNICIPIO": "8", "ID_NIL": "76", "NIL": "QUARTO OGGIARO - VIALBA - MUSOCCO", "LONG_X_4326": 9.142164, "LAT_Y_4326": 45.515358, "Location": "(45.51535800000005, 9.142164000000037)" }, "geometry": { "type": "Point", "coordinates": [ 9.142164, 45.515358 ] } },
{ "type": "Feature", "properties": { "Ente": "Ufficio PT", "Indirizzo": "VIA GUIDO COPPIN, 3", "Telefono": "02-8138844", "Fax": "02-89125714", "CAP": "20142", "MUNICIPIO": "6", "ID_NIL": "48", "NIL": "RONCHETTO SUL NAVIGLIO - Q.RE LODOVICO IL MORO", "LONG_X_4326": 9.1341405000001, "LAT_Y_4326": 45.440577, "Location": "(45.440577000000076, 9.134140500000058)" }, "geometry": { "type": "Point", "coordinates": [ 9.134140500000058, 45.440577 ] } },
{ "type": "Feature", "properties": { "Ente": "Ufficio PT", "Indirizzo": "VIA LUIGI FEDERICO MENABREA, 14", "Telefono": "02-69000791", "Fax": "02-6687034", "CAP": "20159", "MUNICIPIO": "9", "ID_NIL": "11", "NIL": "ISOLA", "LONG_X_4326": 9.1869435, "LAT_Y_4326": 45.495054, "Location": "(45.49505400000004, 9.18694350000004)" }, "geometry": { "type": "Point", "coordinates": [ 9.186943500000041, 45.495054 ] } },
{ "type": "Feature", "properties": { "Ente": "Ufficio PT", "Indirizzo": "VIA LUIGI PORRO LAMBERTENGHI, 23", "Telefono": "02-6888961", "Fax": "02-6880003", "CAP": "20159", "MUNICIPIO": "9", "ID_NIL": "11", "NIL": "ISOLA", "LONG_X_4326": 9.1881315000001, "LAT_Y_4326": 45.489123, "Location": "(45.48912300000006, 9.188131500000054)" }, "geometry": { "type": "Point", "coordinates": [ 9.188131500000054, 45.489123 ] } },
{ "type": "Feature", "properties": { "Ente": "Ufficio PT", "Indirizzo": "VIA LUIGI VARANINI, 26\/28", "Telefono": "02-28181611", "Fax": "02-28181647", "CAP": "20127", "MUNICIPIO": "2", "ID_NIL": "20", "NIL": "LORETO - CASORETTO - NOLO", "LONG_X_4326": 9.2147805000001, "LAT_Y_4326": 45.493164, "Location": "(45.493164000000036, 9.214780500000074)" }, "geometry": { "type": "Point", "coordinates": [ 9.214780500000074, 45.493164 ] } },
{ "type": "Feature", "properties": { "Ente": "Ufficio PT", "Indirizzo": "VIA LUISA BATTISTOTTI SASSI, 14", "Telefono": "02-70003704", "Fax": "02-717650", "CAP": "20133", "MUNICIPIO": "4", "ID_NIL": "25", "NIL": "CORSICA", "LONG_X_4326": 9.2279655, "LAT_Y_4326": 45.463968, "Location": "(45.46396800000008, 9.227965500000039)" }, "geometry": { "type": "Point", "coordinates": [ 9.227965500000039, 45.463968 ] } },
{ "type": "Feature", "properties": { "Ente": "Ufficio PT", "Indirizzo": "VIA MARCONA, 1", "Telefono": "02-55010729", "Fax": "02-55191755", "CAP": "20129", "MUNICIPIO": "4", "ID_NIL": "26", "NIL": "XXII MARZO", "LONG_X_4326": 9.2081610000000751, "LAT_Y_4326": 45.463545, "Location": "(45.46354500000007, 9.208161000000075)" }, "geometry": { "type": "Point", "coordinates": [ 9.208161, 45.463545 ] } },
{ "type": "Feature", "properties": { "Ente": "Ufficio PT", "Indirizzo": "VIA MAZZINI GIUSEPPE, 15", "Telefono": "02-86396911", "Fax": "02-72000087", "CAP": "20123", "MUNICIPIO": "1", "ID_NIL": "1", "NIL": "DUOMO", "LONG_X_4326": 9.1889370000000667, "LAT_Y_4326": 45.461898, "Location": "(45.461898000000076, 9.188937000000067)" }, "geometry": { "type": "Point", "coordinates": [ 9.188937, 45.461898 ] } },
{ "type": "Feature", "properties": { "Ente": "Ufficio PT", "Indirizzo": "VIA MEDEGHINO, 16", "Telefono": "02-89511452", "Fax": "02-89515585", "CAP": "20141", "MUNICIPIO": "5", "ID_NIL": "42", "NIL": "STADERA - CHIESA ROSSA - Q.RE TORRETTA - CONCA FALLATA", "LONG_X_4326": 9.1816155, "LAT_Y_4326": 45.43227, "Location": "(45.432270000000074, 9.18161550000002)" }, "geometry": { "type": "Point", "coordinates": [ 9.181615500000021, 45.43227 ] } },
{ "type": "Feature", "properties": { "Ente": "Ufficio PT", "Indirizzo": "VIA MONDOVI', 2", "Telefono": "02-26300993", "Fax": "02-2592735", "CAP": "20132", "MUNICIPIO": "2", "ID_NIL": "19", "NIL": "PADOVA - TURRO - CRESCENZAGO", "LONG_X_4326": 9.241767, "LAT_Y_4326": 45.503541, "Location": "(45.50354100000004, 9.241767000000038)" }, "geometry": { "type": "Point", "coordinates": [ 9.241767, 45.503541 ] } },
{ "type": "Feature", "properties": { "Ente": "Ufficio PT", "Indirizzo": "VIA MONTE SAN GENESIO, 31", "Telefono": "02-603556", "Fax": "02-6686538", "CAP": "20158", "MUNICIPIO": "9", "ID_NIL": "79", "NIL": "DERGANO", "LONG_X_4326": 9.1786680000000729, "LAT_Y_4326": 45.500157, "Location": "(45.50015700000006, 9.178668000000073)" }, "geometry": { "type": "Point", "coordinates": [ 9.178668, 45.500157 ] } },
{ "type": "Feature", "properties": { "Ente": "Ufficio PT", "Indirizzo": "VIA MONTEVIDEO, 25", "Telefono": "02-43458431", "Fax": "02-43458447", "CAP": "20144", "MUNICIPIO": "6", "ID_NIL": "50", "NIL": "PORTA GENOVA", "LONG_X_4326": 9.1644885000001, "LAT_Y_4326": 45.458505, "Location": "(45.45850500000006, 9.164488500000061)" }, "geometry": { "type": "Point", "coordinates": [ 9.164488500000061, 45.458505 ] } },
{ "type": "Feature", "properties": { "Ente": "Ufficio PT", "Indirizzo": "VIA NOVARA, 31", "Telefono": "02-40309411", "Fax": "02-40309447", "CAP": "20147", "MUNICIPIO": "7", "ID_NIL": "56", "NIL": "FORZE ARMATE", "LONG_X_4326": 9.1250865000001, "LAT_Y_4326": 45.469179, "Location": "(45.469179000000054, 9.125086500000066)" }, "geometry": { "type": "Point", "coordinates": [ 9.125086500000066, 45.469179 ] } },
{ "type": "Feature", "properties": { "Ente": "Ufficio PT", "Indirizzo": "VIA ORTICA, 19", "Telefono": "02-70061332", "Fax": "02-70061347", "CAP": "20134", "MUNICIPIO": "3", "ID_NIL": "23", "NIL": "LAMBRATE - ORTICA", "LONG_X_4326": 9.2443905000001, "LAT_Y_4326": 45.471078, "Location": "(45.471078000000034, 9.244390500000065)" }, "geometry": { "type": "Point", "coordinates": [ 9.244390500000065, 45.471078 ] } },
{ "type": "Feature", "properties": { "Ente": "Ufficio PT", "Indirizzo": "VIA PAOLO LOMAZZO, 25", "Telefono": "02-33610135", "Fax": "02-312892", "CAP": "20154", "MUNICIPIO": "8", "ID_NIL": "69", "NIL": "SARPI", "LONG_X_4326": 9.1716255000001, "LAT_Y_4326": 45.482499, "Location": "(45.482499000000075, 9.171625500000061)" }, "geometry": { "type": "Point", "coordinates": [ 9.171625500000061, 45.482499 ] } },
{ "type": "Feature", "properties": { "Ente": "Ufficio PT", "Indirizzo": "VIA PAOLO SEGNERI, SNC", "Telefono": "02-419148", "Fax": "02-4155127", "CAP": "20147", "MUNICIPIO": "6", "ID_NIL": "49", "NIL": "GIAMBELLINO", "LONG_X_4326": 9.1313101180000444, "LAT_Y_4326": 45.44753969900006, "Location": "(45.44753969900006, 9.131310118000044)" }, "geometry": { "type": "Point", "coordinates": [ 9.131310118000044, 45.44753969900006 ] } },
{ "type": "Feature", "properties": { "Ente": "Ufficio PT", "Indirizzo": "VIA PELLEGRINO ROSSI, 15\/1", "Telefono": "02-6468700", "Fax": "02-6481024", "CAP": "20161", "MUNICIPIO": "9", "ID_NIL": "80", "NIL": "AFFORI", "LONG_X_4326": 9.1768185, "LAT_Y_4326": 45.50823, "Location": "(45.508230000000026, 9.176818500000024)" }, "geometry": { "type": "Point", "coordinates": [ 9.176818500000024, 45.50823 ] } },
{ "type": "Feature", "properties": { "Ente": "Ufficio PT", "Indirizzo": "VIA PINDARO, 29", "Telefono": null, "Fax": null, "CAP": "20128", "MUNICIPIO": "2", "ID_NIL": "16", "NIL": "GORLA - PRECOTTO", "LONG_X_4326": 9.2299590000000649, "LAT_Y_4326": 45.517005, "Location": "(45.51700500000004, 9.229959000000065)" }, "geometry": { "type": "Point", "coordinates": [ 9.229959, 45.517005 ] } },
{ "type": "Feature", "properties": { "Ente": "Ufficio PT", "Indirizzo": "VIA PONALE, 6", "Telefono": "02-66100185", "Fax": "02-66103576", "CAP": "20162", "MUNICIPIO": "9", "ID_NIL": "14", "NIL": "NIGUARDA - CA' GRANDA - PRATO CENTENARO - Q.RE FULVIO TESTI", "LONG_X_4326": 9.208557, "LAT_Y_4326": 45.522855, "Location": "(45.52285500000005, 9.208557000000042)" }, "geometry": { "type": "Point", "coordinates": [ 9.208557, 45.522855 ] } },
{ "type": "Feature", "properties": { "Ente": "Ufficio PT", "Indirizzo": "VIA RAFFAELLO SANZIO, 32", "Telefono": "02-4983983", "Fax": "02-48011859", "CAP": "20149", "MUNICIPIO": "7", "ID_NIL": "58", "NIL": "DE ANGELI - MONTE ROSA", "LONG_X_4326": 9.1505295000001, "LAT_Y_4326": 45.467388, "Location": "(45.46738800000003, 9.150529500000061)" }, "geometry": { "type": "Point", "coordinates": [ 9.150529500000061, 45.467388 ] } },
{ "type": "Feature", "properties": { "Ente": "Ufficio PT", "Indirizzo": "VIA RIMINI, 2", "Telefono": "02-8466513", "Fax": "02-89504852", "CAP": "20142", "MUNICIPIO": "5", "ID_NIL": "43", "NIL": "TIBALDI", "LONG_X_4326": 9.1740555000001, "LAT_Y_4326": 45.440793, "Location": "(45.44079300000004, 9.174055500000065)" }, "geometry": { "type": "Point", "coordinates": [ 9.174055500000065, 45.440793 ] } },
{ "type": "Feature", "properties": { "Ente": "Ufficio PT", "Indirizzo": "VIA RODOLFO CARABELLI, 7", "Telefono": "02-5453094", "Fax": "02-55182187", "CAP": "20137", "MUNICIPIO": "4", "ID_NIL": "28", "NIL": "UMBRIA - MOLISE - CALVAIRATE", "LONG_X_4326": 9.2218455, "LAT_Y_4326": 45.450477, "Location": "(45.450477000000035, 9.221845500000029)" }, "geometry": { "type": "Point", "coordinates": [ 9.221845500000029, 45.450477 ] } },
{ "type": "Feature", "properties": { "Ente": "Ufficio PT", "Indirizzo": "VIA ROSOLINO PILO, 19\/A", "Telefono": "02-2046789", "Fax": "02-29403189", "CAP": "20129", "MUNICIPIO": "3", "ID_NIL": "21", "NIL": "BUENOS AIRES - PORTA VENEZIA - PORTA MONFORTE", "LONG_X_4326": 9.2130255000001, "LAT_Y_4326": 45.473013, "Location": "(45.47301300000004, 9.213025500000072)" }, "geometry": { "type": "Point", "coordinates": [ 9.213025500000072, 45.473013 ] } },
{ "type": "Feature", "properties": { "Ente": "Ufficio PT", "Indirizzo": "VIA RUGGERO BONGHI, 3\/7", "Telefono": "02-84405537", "Fax": "02-84405502", "CAP": "20141", "MUNICIPIO": "5", "ID_NIL": "43", "NIL": "TIBALDI", "LONG_X_4326": 9.179802000000052, "LAT_Y_4326": 45.440811, "Location": "(45.44081100000005, 9.179802000000052)" }, "geometry": { "type": "Point", "coordinates": [ 9.179802, 45.440811 ] } },
{ "type": "Feature", "properties": { "Ente": "Ufficio PT", "Indirizzo": "VIA SAMBUCO, 15", "Telefono": "02-89405932", "Fax": "02-8375231", "CAP": "20122", "MUNICIPIO": "1", "ID_NIL": "6", "NIL": "PORTA TICINESE - CONCA DEL NAVIGLIO", "LONG_X_4326": 9.181683, "LAT_Y_4326": 45.453096, "Location": "(45.45309600000007, 9.181683000000021)" }, "geometry": { "type": "Point", "coordinates": [ 9.181683, 45.453096 ] } },
{ "type": "Feature", "properties": { "Ente": "Ufficio PT", "Indirizzo": "VIA SAN MAMETE, 16", "Telefono": "02-2566786", "Fax": "02-2591830", "CAP": "20128", "MUNICIPIO": "2", "ID_NIL": "17", "NIL": "ADRIANO", "LONG_X_4326": 9.2488905000001, "LAT_Y_4326": 45.510912, "Location": "(45.510912000000076, 9.248890500000073)" }, "geometry": { "type": "Point", "coordinates": [ 9.248890500000073, 45.510912 ] } },
{ "type": "Feature", "properties": { "Ente": "Ufficio PT", "Indirizzo": "VIA SAN SIMPLICIANO, 5", "Telefono": "02-86396811", "Fax": "02-86396847", "CAP": "20121", "MUNICIPIO": "1", "ID_NIL": "2", "NIL": "BRERA", "LONG_X_4326": 9.1844100000000708, "LAT_Y_4326": 45.473184, "Location": "(45.47318400000006, 9.18441000000007)" }, "geometry": { "type": "Point", "coordinates": [ 9.18441, 45.473184 ] } },
{ "type": "Feature", "properties": { "Ente": "Ufficio PT", "Indirizzo": "VIA SANTA SOFIA, 8", "Telefono": "02-58318572", "Fax": "02-58308396", "CAP": "20122", "MUNICIPIO": "1", "ID_NIL": "1", "NIL": "DUOMO", "LONG_X_4326": 9.192456, "LAT_Y_4326": 45.457533, "Location": "(45.45753300000007, 9.19245600000005)" }, "geometry": { "type": "Point", "coordinates": [ 9.192456, 45.457533 ] } },
{ "type": "Feature", "properties": { "Ente": "Ufficio PT", "Indirizzo": "VIA SAVERIO ALTAMURA, 1", "Telefono": "02-48706102", "Fax": "02-40071177", "CAP": "20148", "MUNICIPIO": "7", "ID_NIL": "57", "NIL": "SAN SIRO", "LONG_X_4326": 9.1408275000001, "LAT_Y_4326": 45.468207, "Location": "(45.46820700000006, 9.140827500000057)" }, "geometry": { "type": "Point", "coordinates": [ 9.140827500000057, 45.468207 ] } },
{ "type": "Feature", "properties": { "Ente": "Ufficio PT", "Indirizzo": "VIA SCIPIONE PIATTOLI, 6", "Telefono": "02-26112432", "Fax": "02-2896553", "CAP": "20127", "MUNICIPIO": "2", "ID_NIL": "19", "NIL": "PADOVA - TURRO - CRESCENZAGO", "LONG_X_4326": 9.2319435000001, "LAT_Y_4326": 45.498231, "Location": "(45.49823100000003, 9.231943500000057)" }, "geometry": { "type": "Point", "coordinates": [ 9.231943500000057, 45.498231 ] } },
{ "type": "Feature", "properties": { "Ente": "Ufficio PT", "Indirizzo": "VIA VIGNA, 6", "Telefono": "02-86396711", "Fax": "02-72080370", "CAP": "20123", "MUNICIPIO": "1", "ID_NIL": "1", "NIL": "DUOMO", "LONG_X_4326": 9.1795770000000516, "LAT_Y_4326": 45.464103, "Location": "(45.46410300000008, 9.179577000000052)" }, "geometry": { "type": "Point", "coordinates": [ 9.179577, 45.464103 ] } },
{ "type": "Feature", "properties": { "Ente": "Ufficio PT", "Indirizzo": "VIALE ANDREA DORIA, 48", "Telefono": "02-2047169", "Fax": "02-29527342", "CAP": "20124", "MUNICIPIO": "3", "ID_NIL": "21", "NIL": "BUENOS AIRES - PORTA VENEZIA - PORTA MONFORTE", "LONG_X_4326": 9.2144700000000626, "LAT_Y_4326": 45.485775, "Location": "(45.48577500000005, 9.214470000000063)" }, "geometry": { "type": "Point", "coordinates": [ 9.21447, 45.485775 ] } },
{ "type": "Feature", "properties": { "Ente": "Ufficio PT", "Indirizzo": "VIALE CASSIODORO, 4", "Telefono": "02-43359111", "Fax": "02-43359147", "CAP": "20145", "MUNICIPIO": "8", "ID_NIL": "68", "NIL": "PAGANO", "LONG_X_4326": 9.1600695000001, "LAT_Y_4326": 45.473634, "Location": "(45.47363400000006, 9.160069500000077)" }, "geometry": { "type": "Point", "coordinates": [ 9.160069500000077, 45.473634 ] } },
{ "type": "Feature", "properties": { "Ente": "Ufficio PT", "Indirizzo": "VIALE EVARISTO STEFINI, 12", "Telefono": "02-67361911", "Fax": "02-67361947", "CAP": "20125", "MUNICIPIO": "2", "ID_NIL": "12", "NIL": "MACIACHINI - MAGGIOLINA", "LONG_X_4326": 9.202455, "LAT_Y_4326": 45.49644, "Location": "(45.496440000000064, 9.202455000000043)" }, "geometry": { "type": "Point", "coordinates": [ 9.202455, 45.49644 ] } },
{ "type": "Feature", "properties": { "Ente": "Ufficio PT", "Indirizzo": "VIALE GIOVANNI SUZZANI,", "Telefono": "02-6470400", "Fax": "02-6425336", "CAP": "20162", "MUNICIPIO": "9", "ID_NIL": "14", "NIL": "NIGUARDA - CA' GRANDA - PRATO CENTENARO - Q.RE FULVIO TESTI", "LONG_X_4326": 9.2079334200000744, "LAT_Y_4326": 45.52444928500006, "Location": "(45.52444928500006, 9.207933420000074)" }, "geometry": { "type": "Point", "coordinates": [ 9.207933420000074, 45.52444928500006 ] } },
{ "type": "Feature", "properties": { "Ente": "Ufficio PT", "Indirizzo": "VIALE GORIZIA, 6", "Telefono": "02-8358241", "Fax": "02-8373830", "CAP": "20144", "MUNICIPIO": "6", "ID_NIL": "44", "NIL": "PORTA TICINESE - CONCHETTA", "LONG_X_4326": 9.1731555000001, "LAT_Y_4326": 45.454518, "Location": "(45.454518000000064, 9.173155500000064)" }, "geometry": { "type": "Point", "coordinates": [ 9.173155500000064, 45.454518 ] } },
{ "type": "Feature", "properties": { "Ente": "Ufficio PT", "Indirizzo": "VIALE MONTE CENERI, SNC", "Telefono": "02-32671911", "Fax": "02-32671947", "CAP": "20155", "MUNICIPIO": "8", "ID_NIL": "71", "NIL": "VILLAPIZZONE - CAGNOLA - BOLDINASCO", "LONG_X_4326": 9.1535917320000522, "LAT_Y_4326": 45.491567518000068, "Location": "(45.49156751800007, 9.153591732000052)" }, "geometry": { "type": "Point", "coordinates": [ 9.153591732000052, 45.491567518000068 ] } },
{ "type": "Feature", "properties": { "Ente": "Ufficio PT", "Indirizzo": "VIALE SABOTINO, 21\/A", "Telefono": "02-58457911", "Fax": "02-58457947", "CAP": "20135", "MUNICIPIO": "5", "ID_NIL": "27", "NIL": "PTA ROMANA", "LONG_X_4326": 9.2001735000001, "LAT_Y_4326": 45.451017, "Location": "(45.451017000000036, 9.200173500000062)" }, "geometry": { "type": "Point", "coordinates": [ 9.200173500000062, 45.451017 ] } },
{ "type": "Feature", "properties": { "Ente": "Ufficio PT", "Indirizzo": "VIALE SAN GIMIGNANO, 10", "Telefono": "02-41411311", "Fax": "02-41411347", "CAP": "20146", "MUNICIPIO": "6", "ID_NIL": "52", "NIL": "BANDE NERE", "LONG_X_4326": 9.1365255000001, "LAT_Y_4326": 45.455868, "Location": "(45.455868000000066, 9.136525500000062)" }, "geometry": { "type": "Point", "coordinates": [ 9.136525500000062, 45.455868 ] } },
{ "type": "Feature", "properties": { "Ente": "Ufficio PT", "Indirizzo": "VIALE ZARA, 131", "Telefono": "02-69911111", "Fax": "02-69911147", "CAP": "20159", "MUNICIPIO": "9", "ID_NIL": "12", "NIL": "MACIACHINI - MAGGIOLINA", "LONG_X_4326": 9.1966860000000565, "LAT_Y_4326": 45.500193, "Location": "(45.50019300000008, 9.196686000000057)" }, "geometry": { "type": "Point", "coordinates": [ 9.196686, 45.500193 ] } }
]
}
